{
   "results" : [
      {
         "address_components" : [
            {
               "long_name" : "Maligawatta Place",
               "short_name" : "Maligawatta Pl",
               "types" : [ "route" ]
            },
            {
               "long_name" : "Colombo 10",
               "short_name" : "Colombo 10",
               "types" : [ "political", "sublocality", "sublocality_level_1" ]
            },
            {
               "long_name" : "Colombo",
               "short_name" : "Colombo",
               "types" : [ "locality", "political" ]
            },
            {
               "long_name" : "Colombo",
               "short_name" : "Colombo",
               "types" : [ "administrative_area_level_2", "political" ]
            },
            {
               "long_name" : "Western Province",
               "short_name" : "WP",
               "types" : [ "administrative_area_level_1", "political" ]
            },
            {
               "long_name" : "Sri Lanka",
               "short_name" : "LK",
               "types" : [ "country", "political" ]
            },
            {
               "long_name" : "01000",
               "short_name" : "01000",
               "types" : [ "postal_code" ]
            }
         ],
         "formatted_address" : "Maligawatta Pl, Colombo 01000, Sri Lanka",
         "geometry" : {
            "bounds" : {
               "northeast" : {
                  "lat" : 6.9358825,
                  "lng" : 79.86938839999999
               },
               "southwest" : {
                  "lat" : 6.9358445,
                  "lng" : 79.8685388
               }
            },
            "location" : {
               "lat" : 6.9358553,
               "lng" : 79.8689634
            },
            "location_type" : "GEOMETRIC_CENTER",
            "viewport" : {
               "northeast" : {
                  "lat" : 6.937212480291501,
                  "lng" : 79.87031258029151
               },
               "southwest" : {
                  "lat" : 6.934514519708498,
                  "lng" : 79.86761461970849
               }
            }
         },
         "place_id" : "ChIJG_J0VQFZ4joRaCITmiv2mLI",
         "types" : [ "route" ]
      },
      {
         "address_components" : [
            {
               "long_name" : "Maligawatte",
               "short_name" : "Maligawatte",
               "types" : [ "neighborhood", "political" ]
            },
            {
               "long_name" : "Colombo 10",
               "short_name" : "Colombo 10",
               "types" : [ "political", "sublocality", "sublocality_level_1" ]
            },
            {
               "long_name" : "Colombo",
               "short_name" : "Colombo",
               "types" : [ "locality", "political" ]
            },
            {
               "long_name" : "Colombo",
               "short_name" : "Colombo",
               "types" : [ "administrative_area_level_2", "political" ]
            },
            {
               "long_name" : "Western Province",
               "short_name" : "WP",
               "types" : [ "administrative_area_level_1", "political" ]
            },
            {
               "long_name" : "Sri Lanka",
               "short_name" : "LK",
               "types" : [ "country", "political" ]
            }
         ],
         "formatted_address" : "Maligawatte, Colombo, Sri Lanka",
         "geometry" : {
            "bounds" : {
               "northeast" : {
                  "lat" : 6.9395827,
                  "lng" : 79.87306769999999
               },
               "southwest" : {
                  "lat" : 6.93364,
                  "lng" : 79.8660579
               }
            },
            "location" : {
               "lat" : 6.9372716,
               "lng" : 79.87175119999999
            },
            "location_type" : "APPROXIMATE",
            "viewport" : {
               "northeast" : {
                  "lat" : 6.9395827,
                  "lng" : 79.87306769999999
               },
               "southwest" : {
                  "lat" : 6.93364,
                  "lng" : 79.8660579
               }
            }
         },
         "place_id" : "ChIJn_-xRQFZ4joR9tRRDR-pTuk",
         "types" : [ "neighborhood", "political" ]
      },
      {
         "address_components" : [
            {
               "long_name" : "Colombo 10",
               "short_name" : "Colombo 10",
               "types" : [ "political", "sublocality", "sublocality_level_1" ]
            },
            {
               "long_name" : "Colombo",
               "short_name" : "Colombo",
               "types" : [ "locality", "political" ]
            },
            {
               "long_name" : "Colombo",
               "short_name" : "Colombo",
               "types" : [ "administrative_area_level_2", "political" ]
            },
            {
               "long_name" : "Western Province",
               "short_name" : "WP",
               "types" : [ "administrative_area_level_1", "political" ]
            },
            {
               "long_name" : "Sri Lanka",
               "short_name" : "LK",
               "types" : [ "country", "political" ]
            }
         ],
         "formatted_address" : "Colombo 10, Colombo, Sri Lanka",
         "geometry" : {
            "bounds" : {
               "northeast" : {
                  "lat" : 6.9434355,
                  "lng" : 79.87820529999999
               },
               "southwest" : {
                  "lat" : 6.9167798,
                  "lng" : 79.84693559999999
               }
            },
            "location" : {
               "lat" : 6.922409099999999,
               "lng" : 79.8660836
            },
            "location_type" : "APPROXIMATE",
            "viewport" : {
               "northeast" : {
                  "lat" : 6.9434355,
                  "lng" : 79.87820529999999
               },
               "southwest" : {
                  "lat" : 6.9167798,
                  "lng" : 79.84693559999999
               }
            }
         },
         "place_id" : "ChIJe3EneglZ4joR13ELxe9K9-g",
         "types" : [ "political", "sublocality", "sublocality_level_1" ]
      },
      {
         "address_components" : [
            {
               "long_name" : "Colombo",
               "short_name" : "Colombo",
               "types" : [ "locality", "political" ]
            },
            {
               "long_name" : "Colombo",
               "short_name" : "Colombo",
               "types" : [ "administrative_area_level_2", "political" ]
            },
            {
               "long_name" : "Western Province",
               "short_name" : "WP",
               "types" : [ "administrative_area_level_1", "political" ]
            },
            {
               "long_name" : "Sri Lanka",
               "short_name" : "LK",
               "types" : [ "country", "political" ]
            }
         ],
         "formatted_address" : "Colombo, Sri Lanka",
         "geometry" : {
            "bounds" : {
               "northeast" : {
                  "lat" : 6.9812866,
                  "lng" : 79.8900852
               },
               "southwest" : {
                  "lat" : 6.862390700000001,
                  "lng" : 79.8223258
               }
            },
            "location" : {
               "lat" : 6.9270786,
               "lng" : 79.861243
            },
            "location_type" : "APPROXIMATE",
            "viewport" : {
               "northeast" : {
                  "lat" : 6.980584400000001,
                  "lng" : 79.8900852
               },
               "southwest" : {
                  "lat" : 6.8625113,
                  "lng" : 79.8225192
               }
            }
         },
         "place_id" : "ChIJA3B6D9FT4joRjYPTMk0uCzI",
         "types" : [ "locality", "political" ]
      },
      {
         "address_components" : [
            {
               "long_name" : "Colombo",
               "short_name" : "Colombo",
               "types" : [ "administrative_area_level_2", "political" ]
            },
            {
               "long_name" : "Western Province",
               "short_name" : "WP",
               "types" : [ "administrative_area_level_1", "political" ]
            },
            {
               "long_name" : "Sri Lanka",
               "short_name" : "LK",
               "types" : [ "country", "political" ]
            }
         ],
         "formatted_address" : "Colombo, Sri Lanka",
         "geometry" : {
            "bounds" : {
               "northeast" : {
                  "lat" : 6.9812866,
                  "lng" : 80.2339281
               },
               "southwest" : {
                  "lat" : 6.7491249,
                  "lng" : 79.8223258
               }
            },
            "location" : {
               "lat" : 6.860196699999999,
               "lng" : 80.0534923
            },
            "location_type" : "APPROXIMATE",
            "viewport" : {
               "northeast" : {
                  "lat" : 6.980584400000001,
                  "lng" : 80.2339281
               },
               "southwest" : {
                  "lat" : 6.7491249,
                  "lng" : 79.8225192
               }
            }
         },
         "place_id" : "ChIJjXY40tpT4joRAGLfCGSohJ8",
         "types" : [ "administrative_area_level_2", "political" ]
      },
      {
         "address_components" : [
            {
               "long_name" : "Western Province",
               "short_name" : "WP",
               "types" : [ "administrative_area_level_1", "political" ]
            },
            {
               "long_name" : "Sri Lanka",
               "short_name" : "LK",
               "types" : [ "country", "political" ]
            }
         ],
         "formatted_address" : "Western Province, Sri Lanka",
         "geometry" : {
            "bounds" : {
               "northeast" : {
                  "lat" : 7.3244779,
                  "lng" : 80.3798341
               },
               "southwest" : {
                  "lat" : 6.333996,
                  "lng" : 79.8163752
               }
            },
            "location" : {
               "lat" : 6.901608599999999,
               "lng" : 80.0087746
            },
            "location_type" : "APPROXIMATE",
            "viewport" : {
               "northeast" : {
                  "lat" : 7.3244779,
                  "lng" : 80.3798341
               },
               "southwest" : {
                  "lat" : 6.333996,
                  "lng" : 79.8168682
               }
            }
         },
         "place_id" : "ChIJmZuWSbRS4joRJjAclJYvwKc",
         "types" : [ "administrative_area_level_1", "political" ]
      },
      {
         "address_components" : [
            {
               "long_name" : "Sri Lanka",
               "short_name" : "LK",
               "types" : [ "country", "political" ]
            }
         ],
         "formatted_address" : "Sri Lanka",
         "geometry" : {
            "bounds" : {
               "northeast" : {
                  "lat" : 10.03377,
                  "lng" : 82.14479999999999
               },
               "southwest" : {
                  "lat" : 5.6816,
                  "lng" : 79.26769999999999
               }
            },
            "location" : {
               "lat" : 7.873053999999999,
               "lng" : 80.77179699999999
            },
            "location_type" : "APPROXIMATE",
            "viewport" : {
               "northeast" : {
                  "lat" : 9.835766399999999,
                  "lng" : 81.87870289999999
               },
               "southwest" : {
                  "lat" : 5.9186784,
                  "lng" : 79.5219827
               }
            }
         },
         "place_id" : "ChIJnR5a9jxZ4joRjNPiALSkPeE",
         "types" : [ "country", "political" ]
      }
   ],
   "status" : "OK"
}
 
 